[
  {
      "ID": 1,
      "name": "Bệnh viện Bạch Mai",
      "Lat": 21.000964,
      "Lng": 105.840685,
      "address": "78 Đường Giải Phóng, Phương Đình, Đống Đa, Hà Nội, Việt Nam"
  },
  {
      "ID": 2,
      "name": "Bệnh viện Nhiệt đới Trung ương",
      "Lat": 21.002187,
      "Lng": 105.838935,
      "address": "78 Giải Phóng, Phương Đình, Đống Đa, Hà Nội, Việt Nam"
  },
  {
      "ID": 3,
      "name": "Bệnh viện E",
      "Lat": 21.050104,
      "Lng": 105.789570,
      "address": "87 Trần Cung, Nghĩa Tân, Cầu Giấy, Hà Nội, Việt Nam"
  },
  {
      "ID": 4,
      "name": "Bệnh viện nhi Trung ương",
      "Lat": 21.024894,
      "Lng": 105.807497,
      "address": "879 Đường La Thành, Láng Thượng, Đống Đa, Hà Nội, Việt Nam"
  },
  {
      "ID": 5,
      "name": "Bệnh viện Phổi Trung ương",
      "Lat": 21.043367,
      "Lng": 105.813953,
      "address": "463 Hoàng Hoa Thám, Vĩnh Phú, Ba Đình, Hà Nội, Việt Nam"
  },
  {
      "ID": 6,
      "name": "Bệnh viện Việt Nam - Thụy Điển",
      "Lat": 21.041668,
      "Lng": 106.752041,
      "address": "Tuệ Tĩnh, Thanh Sơn, Thành phố Uông Bí, Quảng Ninh, Việt Nam"
  },
  {
      "ID": 7,
      "name": "Bệnh viện Đa khoa Trung ương Thái Nguyên",
      "Lat": 21.587966,
      "Lng": 105.830908,
      "address": "Đường Lương Ngọc Quyến, Phan Đình Phùng, Thành phố Thái Nguyên, Thái Nguyên, Việt Nam"
  },
  {
      "ID": 8,
      "name": "Bệnh viện Trung ương Huế",
      "Lat": 16.462458,
      "Lng": 107.587965,
      "address": "16 Lê Lợi, Vĩnh Ninh, Thành phố Huế, Thừa Thiên Huế, Việt Nam"
  },
  {
      "ID": 9,
      "name": "Bệnh viện Chợ Rẫy",
      "Lat": 10.757078,
      "Lng": 106.659731,
      "address": "201B Nguyễn Chí Thanh, Phường 12, Quận 5, Hồ Chí Minh, Việt Nam"
  },
  {
      "ID": 10,
      "name": "Bệnh viện Đa khoa Trung ương Cần Thơ",
      "Lat": 10.028778,
      "Lng": 105.755398,
      "address": "315 Đường Nguyễn Văn Linh, Phường An Khánh, Ninh Kiều, Cần Thơ, Việt Nam"
  },
  {
      "ID": 11,
      "name": "Bệnh viện Saint Paul Hà Nội",
      "Lat": 21.031387,
      "Lng": 105.835169,
      "address": "12 Chu Văn An, Điện Bàn, Ba Đình, Hà Nội, Việt Nam"
  },
  {
      "ID": 12,
      "name": "Bệnh viện Vinmec Hà Nội",
      "Lat": 20.996390,
      "Lng": 105.866965,
      "address": "458 Phố Minh Khai, Vĩnh Tuy, Hai Bà Trưng, Hà Nội, Việt Nam"
  },
  {
      "ID": 13,
      "name": "Bệnh viện Đà Nẵng",
      "Lat": 16.073852,
      "Lng": 108.216567,
      "address": "103 Quang Trung, Thạch Thang, Hải Châu, Đà Nẵng 550000, Việt Nam"
  },
  {
      "ID": 14,
      "name": "Bệnh viện Nhiệt đới TP Hồ Chí Minh",
      "Lat": 10.752908,
      "Lng": 106.678514,
      "address": "764 Võ Văn Kiệt, Phường 1, Quận 5, Hồ Chí Minh, Việt Nam"
  },
  {
      "ID": 15,
      "name": "Bệnh viện Nhi đồng I",
      "Lat": 10.768584,
      "Lng": 106.670159,
      "address": "341 Sư Vạn Hạnh, Phường 10, Quận 10, Hồ Chí Minh, Việt Nam"
  },
  {
      "ID": 16,
      "name": "Bệnh viện Nhi đồng II",
      "Lat": 10.780899,
      "Lng": 106.702318,
      "address": "14 Lý Tự Trọng, Bến Nghé, Quận 1, Hồ Chí Minh, Việt Nam"
  },
  {
      "ID": 17,
      "name": "Bệnh viện Đa khoa tỉnh Đồng Nai",
      "Lat": 10.952852,
      "Lng": 106.867829,
      "address": "2 Đường Đồng Khởi, Tam Hoà, Thành phố Biên Hòa, Tam Hoà tp. Biên Hòa Đồng Nai, Việt Nam"
  },
  {
      "ID": 18,
      "name": "Bệnh viện Nhiệt đới Khánh Hòa",
      "Lat": 12.257942,
      "Lng": 109.109295,
      "address": "Diên An, Diên Khánh, Khánh Hòa, Việt Nam"
  },
  {
      "ID": 19,
      "name": "Bệnh viện Đa khoa tỉnh Khánh Hòa",
      "Lat": 12.248471,
      "Lng": 109.191915,
      "address": "19 Yersin, Lộc Thọ, Nha Trang, Khánh Hòa 650000, Việt Nam"
  },
  {
      "ID": 20,
      "name": "Bệnh viện Đa khoa tỉnh Thái Bình",
      "Lat": 20.440861,
      "Lng": 106.337740,
      "address": "530 Lý Bôn, P. Quan Trung, Thái Bình, Việt Nam"
  },
  {
      "ID": 21,
      "name": "Bệnh viện Đa khoa tỉnh Lạng Sơn",
      "Lat": 21.886988,
      "Lng": 106.758296,
      "address": "Thôn Đại Sơn Xã, Hợp Thành, Cao Lộc, Lạng Sơn, Việt Nam"
  },
  {
      "ID": 22,
      "name": "Bộ Y Tế",
      "Lat": 21.028462,
      "Lng": 105.825460,
      "address": "138A Giảng Võ, Kim Mã, Ba Đình, Hà Nội, Việt Nam"
  }
]
